{
  "sunglasses": [
    {
      "name": "Tejas Shaligram Patil",
      "phoneNumber": "-",
      "location": "Maharashtra",
      "address": "50, vaishnavi, makhamalabad road, near gurushreshtha building, nashik, Nashik, Nashik, Maharashtra - 422003"
    },
    {
      "name": "Laxmi Sarda",
      "phoneNumber": "-",
      "location": "West Bengal",
      "address": "SARAT BOSE ROAD, PURNADAS ROAD, Sarat Bose Road S.O, Kolkata, 700029"
    },
    {
      "name": "Punya Tulasi Naga Syam Kumar Mavur",
      "phoneNumber": "-",
      "location": "Rajahmundry",
      "address": "S/O Mallikarjunarao, 46-6-20, Temple Street, Jampeta, Rajahmundry (Urban), East Godavari, Andhra Pradesh - 533101"
    },
    {
      "name": "Sekhar Padhan",
      "phoneNumber": "-",
      "location": "Odisha",
      "address": "S/O Abhyagata Padhan, Beheramal, Dunguripali, Beheramal, Sonapur, Odisha - 767023"
    },
    {
      "name": "Suresh Kumar Shetty",
      "phoneNumber": "-",
      "location": "Jaipur",
      "address": "S/O: Timmaya Shetty, 237, pratap nagar, khatipura road, vaishali nagar, Jaipur, Jaipur, Rajasthan - 302021"
    },
    {
      "name": "Aishvaryaa",
      "phoneNumber": "-",
      "location": "Tamil Nadu",
      "address": "C/O Ashok Mayyappan, B-11, Jains Saagarika Apts, 94 Sathyadev Ave, Hotel Leela Palace, Mrc Nagar, Raja Annamalaipuram, Chennai, Tamil Nadu 600028"
    },
    {
      "name": "Vinayak Ashok Vichare",
      "phoneNumber": "-",
      "location": "Jaipur",
      "address": "C/O,Vinayak Ashok Vichare, 58, floor-1st, Hedavkar Wadi-2, D.s. Babrekar Marg, Near M.t.n.l Head Office, Dadar West, Mumbai, Mumbai, Maharashtra - 400028"
    },
    {
      "name": "Chokshi Gunjan",
      "phoneNumber": "9879987633",
      "location": "Gujarat",
      "address": "S/O: Jayendrakumar, 205 rasadhi apartment, opp volga flat, juna vadaj, Ahmedabad City, Naranpura Vistar, Gujarat 380013"
    },
    {
      "name": "Pavan Vernekar",
      "phoneNumber": "-",
      "location": "Karnataka",
      "address": "S/O: Ratnakar, sal Oni, victoria Road, Hubli, Dharwad, Karnataka - 580020"
    },
    {
      "name": "Sayan Pal",
      "phoneNumber": "9088998992",
      "location": "West Bengal",
      "address": "21 SATISH NANDY ROAD, NORTH OF CIRCUS MAIDAN, Anakha Kanchrapara, Amdanga, North 24 Parganas, West Bengal 743145"
    }
  ]
}
